%time,field.header.seq,field.header.stamp,field.header.frame_id,field.child_frame_id,field.pose.pose.position.x,field.pose.pose.position.y,field.pose.pose.position.z,field.pose.pose.orientation.x,field.pose.pose.orientation.y,field.pose.pose.orientation.z,field.pose.pose.orientation.w,field.pose.covariance0,field.pose.covariance1,field.pose.covariance2,field.pose.covariance3,field.pose.covariance4,field.pose.covariance5,field.pose.covariance6,field.pose.covariance7,field.pose.covariance8,field.pose.covariance9,field.pose.covariance10,field.pose.covariance11,field.pose.covariance12,field.pose.covariance13,field.pose.covariance14,field.pose.covariance15,field.pose.covariance16,field.pose.covariance17,field.pose.covariance18,field.pose.covariance19,field.pose.covariance20,field.pose.covariance21,field.pose.covariance22,field.pose.covariance23,field.pose.covariance24,field.pose.covariance25,field.pose.covariance26,field.pose.covariance27,field.pose.covariance28,field.pose.covariance29,field.pose.covariance30,field.pose.covariance31,field.pose.covariance32,field.pose.covariance33,field.pose.covariance34,field.pose.covariance35,field.twist.twist.linear.x,field.twist.twist.linear.y,field.twist.twist.linear.z,field.twist.twist.angular.x,field.twist.twist.angular.y,field.twist.twist.angular.z,field.twist.covariance0,field.twist.covariance1,field.twist.covariance2,field.twist.covariance3,field.twist.covariance4,field.twist.covariance5,field.twist.covariance6,field.twist.covariance7,field.twist.covariance8,field.twist.covariance9,field.twist.covariance10,field.twist.covariance11,field.twist.covariance12,field.twist.covariance13,field.twist.covariance14,field.twist.covariance15,field.twist.covariance16,field.twist.covariance17,field.twist.covariance18,field.twist.covariance19,field.twist.covariance20,field.twist.covariance21,field.twist.covariance22,field.twist.covariance23,field.twist.covariance24,field.twist.covariance25,field.twist.covariance26,field.twist.covariance27,field.twist.covariance28,field.twist.covariance29,field.twist.covariance30,field.twist.covariance31,field.twist.covariance32,field.twist.covariance33,field.twist.covariance34,field.twist.covariance35
1711478676804353581,3445,1711478676792614336,map,base_link,-1.9282543659210205,-1.6177273988723755,-0.006073801778256893,-0.0033252995842706764,0.00810517202752977,0.0688337272258099,0.997589773206785,0.0,0.0,0.0,0.0,0.0,0.0,0.0,0.0,0.0,0.0,0.0,0.0,0.0,0.0,0.0,0.0,0.0,0.0,0.0,0.0,0.0,0.0,0.0,0.0,0.0,0.0,0.0,0.0,0.0,0.0,0.0,0.0,0.0,0.0,0.0,0.0,0.01524813531616696,-0.003644741387153032,-0.017915651590309542,0.009017067961394787,0.005512747913599014,-0.0015283758984878666,0.0,0.0,0.0,0.0,0.0,0.0,0.0,0.0,0.0,0.0,0.0,0.0,0.0,0.0,0.0,0.0,0.0,0.0,0.0,0.0,0.0,0.0,0.0,0.0,0.0,0.0,0.0,0.0,0.0,0.0,0.0,0.0,0.0,0.0,0.0,0.0
1711478676839232968,3446,1711478676822614336,map,base_link,-1.928263545036316,-1.617762804031372,-0.006105716805905104,-0.003310097907484531,0.008097659187146576,0.06884919511921345,0.9975888038292693,0.0,0.0,0.0,0.0,0.0,0.0,0.0,0.0,0.0,0.0,0.0,0.0,0.0,0.0,0.0,0.0,0.0,0.0,0.0,0.0,0.0,0.0,0.0,0.0,0.0,0.0,0.0,0.0,0.0,0.0,0.0,0.0,0.0,0.0,0.0,0.0,0.016751187443942578,-0.003263735985052726,-0.01877872703070351,-0.00118512031622231,0.017213288694620132,0.002506749704480169,0.0,0.0,0.0,0.0,0.0,0.0,0.0,0.0,0.0,0.0,0.0,0.0,0.0,0.0,0.0,0.0,0.0,0.0,0.0,0.0,0.0,0.0,0.0,0.0,0.0,0.0,0.0,0.0,0.0,0.0,0.0,0.0,0.0,0.0,0.0,0.0
1711478676869843686,3447,1711478676853611008,map,base_link,-1.9282532930374146,-1.6178045272827148,-0.006206989753991365,-0.0033046581652124664,0.008115496688325924,0.06881948159101327,0.9975907004374522,0.0,0.0,0.0,0.0,0.0,0.0,0.0,0.0,0.0,0.0,0.0,0.0,0.0,0.0,0.0,0.0,0.0,0.0,0.0,0.0,0.0,0.0,0.0,0.0,0.0,0.0,0.0,0.0,0.0,0.0,0.0,0.0,0.0,0.0,0.0,0.0,0.015725025904202425,-0.004079527923956529,-0.01807432903355185,0.0017721287440508604,0.016026336699724197,-0.0038724113255739234,0.0,0.0,0.0,0.0,0.0,0.0,0.0,0.0,0.0,0.0,0.0,0.0,0.0,0.0,0.0,0.0,0.0,0.0,0.0,0.0,0.0,0.0,0.0,0.0,0.0,0.0,0.0,0.0,0.0,0.0,0.0,0.0,0.0,0.0,0.0,0.0
1711478676902479160,3448,1711478676893611008,map,base_link,-1.928279995918274,-1.6178576946258545,-0.006251275073736906,-0.003311525138069456,0.008124478247598045,0.06881004069694685,0.9975912904933313,0.0,0.0,0.0,0.0,0.0,0.0,0.0,0.0,0.0,0.0,0.0,0.0,0.0,0.0,0.0,0.0,0.0,0.0,0.0,0.0,0.0,0.0,0.0,0.0,0.0,0.0,0.0,0.0,0.0,0.0,0.0,0.0,0.0,0.0,0.0,0.0,0.015408071595496668,-0.0035010962559160266,-0.017502607987708658,-0.01068347878754139,0.024213843047618866,0.004971918184310195,0.0,0.0,0.0,0.0,0.0,0.0,0.0,0.0,0.0,0.0,0.0,0.0,0.0,0.0,0.0,0.0,0.0,0.0,0.0,0.0,0.0,0.0,0.0,0.0,0.0,0.0,0.0,0.0,0.0,0.0,0.0,0.0,0.0,0.0,0.0,0.0
1711478676939603874,3449,1711478676923611008,map,base_link,-1.928304672241211,-1.6178828477859497,-0.0063192518427968025,-0.003325911701390847,0.008151262569826718,0.0688014848866991,0.997591585521271,0.0,0.0,0.0,0.0,0.0,0.0,0.0,0.0,0.0,0.0,0.0,0.0,0.0,0.0,0.0,0.0,0.0,0.0,0.0,0.0,0.0,0.0,0.0,0.0,0.0,0.0,0.0,0.0,0.0,0.0,0.0,0.0,0.0,0.0,0.0,0.0,0.014748405046015047,-0.0036180391618778627,-0.021195858206614612,-0.009911763481795788,0.020444564521312714,0.011486463248729704,0.0,0.0,0.0,0.0,0.0,0.0,0.0,0.0,0.0,0.0,0.0,0.0,0.0,0.0,0.0,0.0,0.0,0.0,0.0,0.0,0.0,0.0,0.0,0.0,0.0,0.0,0.0,0.0,0.0,0.0,0.0,0.0,0.0,0.0,0.0,0.0
1711478676974919575,3450,1711478676953608192,map,base_link,-1.9283467531204224,-1.617908000946045,-0.00638486398383975,-0.00333697887111975,0.008157418973159596,0.06880860770409741,0.9975909533185433,0.0,0.0,0.0,0.0,0.0,0.0,0.0,0.0,0.0,0.0,0.0,0.0,0.0,0.0,0.0,0.0,0.0,0.0,0.0,0.0,0.0,0.0,0.0,0.0,0.0,0.0,0.0,0.0,0.0,0.0,0.0,0.0,0.0,0.0,0.0,0.0,0.01630100288790377,-0.0028508670219107167,-0.01909406252428702,-0.007894913665950298,0.0183880478143692,0.007581252139061687,0.0,0.0,0.0,0.0,0.0,0.0,0.0,0.0,0.0,0.0,0.0,0.0,0.0,0.0,0.0,0.0,0.0,0.0,0.0,0.0,0.0,0.0,0.0,0.0,0.0,0.0,0.0,0.0,0.0,0.0,0.0,0.0,0.0,0.0,0.0,0.0
1711478677008180494,3451,1711478676994608192,map,base_link,-1.9283881187438965,-1.6179256439208984,-0.00643027713522315,-0.0033350534516145354,0.008145343736425097,0.06882580361828987,0.997589857500482,0.0,0.0,0.0,0.0,0.0,0.0,0.0,0.0,0.0,0.0,0.0,0.0,0.0,0.0,0.0,0.0,0.0,0.0,0.0,0.0,0.0,0.0,0.0,0.0,0.0,0.0,0.0,0.0,0.0,0.0,0.0,0.0,0.0,0.0,0.0,0.0,0.016686568131700986,-0.002558914218995073,-0.019252672634220803,-0.003683281596750021,0.014472451992332937,0.014793969690799711,0.0,0.0,0.0,0.0,0.0,0.0,0.0,0.0,0.0,0.0,0.0,0.0,0.0,0.0,0.0,0.0,0.0,0.0,0.0,0.0,0.0,0.0,0.0,0.0,0.0,0.0,0.0,0.0,0.0,0.0,0.0,0.0,0.0,0.0,0.0,0.0
1711478677035355960,3452,1711478677024608192,map,base_link,-1.9284297227859497,-1.6179444789886475,-0.0064338380470871925,-0.00333710876902395,0.008142802413168792,0.06881931300361917,0.9975902789689671,0.0,0.0,0.0,0.0,0.0,0.0,0.0,0.0,0.0,0.0,0.0,0.0,0.0,0.0,0.0,0.0,0.0,0.0,0.0,0.0,0.0,0.0,0.0,0.0,0.0,0.0,0.0,0.0,0.0,0.0,0.0,0.0,0.0,0.0,0.0,0.0,0.015335953651486616,-0.003936065691404183,-0.018093425513881205,-4.5719556510448456e-05,0.005790469236671926,0.013989843428134918,0.0,0.0,0.0,0.0,0.0,0.0,0.0,0.0,0.0,0.0,0.0,0.0,0.0,0.0,0.0,0.0,0.0,0.0,0.0,0.0,0.0,0.0,0.0,0.0,0.0,0.0,0.0,0.0,0.0,0.0,0.0,0.0,0.0,0.0,0.0,0.0
1711478677074826086,3453,1711478677054605120,map,base_link,-1.9284451007843018,-1.6179603338241577,-0.006420991849154234,-0.0033189151599019116,0.00814484324259903,0.06883195705817242,0.9975895203256939,0.0,0.0,0.0,0.0,0.0,0.0,0.0,0.0,0.0,0.0,0.0,0.0,0.0,0.0,0.0,0.0,0.0,0.0,0.0,0.0,0.0,0.0,0.0,0.0,0.0,0.0,0.0,0.0,0.0,0.0,0.0,0.0,0.0,0.0,0.0,0.0,0.016299363496454774,-0.00283245332003978,-0.01950760531020893,0.011361547745764256,-0.012602913193404673,0.011725164018571379,0.0,0.0,0.0,0.0,0.0,0.0,0.0,0.0,0.0,0.0,0.0,0.0,0.0,0.0,0.0,0.0,0.0,0.0,0.0,0.0,0.0,0.0,0.0,0.0,0.0,0.0,0.0,0.0,0.0,0.0,0.0,0.0,0.0,0.0,0.0,0.0
1711478677114665365,3454,1711478677095605120,map,base_link,-1.9284590482711792,-1.6179697513580322,-0.006403553299605846,-0.003307155365986737,0.008135116046307745,0.06881535119985913,0.9975908690248463,0.0,0.0,0.0,0.0,0.0,0.0,0.0,0.0,0.0,0.0,0.0,0.0,0.0,0.0,0.0,0.0,0.0,0.0,0.0,0.0,0.0,0.0,0.0,0.0,0.0,0.0,0.0,0.0,0.0,0.0,0.0,0.0,0.0,0.0,0.0,0.0,0.01610292561513824,-0.0029982204558003074,-0.018221837223950932,0.011844296008348465,-0.010551298968493938,0.0013085879618302,0.0,0.0,0.0,0.0,0.0,0.0,0.0,0.0,0.0,0.0,0.0,0.0,0.0,0.0,0.0,0.0,0.0,0.0,0.0,0.0,0.0,0.0,0.0,0.0,0.0,0.0,0.0,0.0,0.0,0.0,0.0,0.0,0.0,0.0,0.0,0.0
1711478677143390439,3455,1711478677125605120,map,base_link,-1.9285050630569458,-1.6179757118225098,-0.006323669571429491,-0.0033029143393553282,0.00813396227632976,0.06881990305949832,0.9975905318500582,0.0,0.0,0.0,0.0,0.0,0.0,0.0,0.0,0.0,0.0,0.0,0.0,0.0,0.0,0.0,0.0,0.0,0.0,0.0,0.0,0.0,0.0,0.0,0.0,0.0,0.0,0.0,0.0,0.0,0.0,0.0,0.0,0.0,0.0,0.0,0.0,0.01642148079353859,-0.002986305694678656,-0.015803719572093897,0.011767901480197906,-0.01315308455377817,0.007823315449059011,0.0,0.0,0.0,0.0,0.0,0.0,0.0,0.0,0.0,0.0,0.0,0.0,0.0,0.0,0.0,0.0,0.0,0.0,0.0,0.0,0.0,0.0,0.0,0.0,0.0,0.0,0.0,0.0,0.0,0.0,0.0,0.0,0.0,0.0,0.0,0.0
1711478677182606442,3456,1711478677155602048,map,base_link,-1.9285608530044556,-1.617969274520874,-0.006212195847183466,-0.003295982829136556,0.00811865605560297,0.06880536239676206,0.9975916698149679,0.0,0.0,0.0,0.0,0.0,0.0,0.0,0.0,0.0,0.0,0.0,0.0,0.0,0.0,0.0,0.0,0.0,0.0,0.0,0.0,0.0,0.0,0.0,0.0,0.0,0.0,0.0,0.0,0.0,0.0,0.0,0.0,0.0,0.0,0.0,0.0,0.015218725262865652,-0.003239121981220438,-0.015910471686363628,0.002135676797479391,-0.0037712524645030503,-0.002311425749212503,0.0,0.0,0.0,0.0,0.0,0.0,0.0,0.0,0.0,0.0,0.0,0.0,0.0,0.0,0.0,0.0,0.0,0.0,0.0,0.0,0.0,0.0,0.0,0.0,0.0,0.0,0.0,0.0,0.0,0.0,0.0,0.0,0.0,0.0,0.0,0.0
1711478677216885527,3457,1711478677185602048,map,base_link,-1.9286079406738281,-1.6179583072662354,-0.006089028436690569,-0.003296166892326537,0.008116400211390876,0.06884089219005676,0.9975891831509058,0.0,0.0,0.0,0.0,0.0,0.0,0.0,0.0,0.0,0.0,0.0,0.0,0.0,0.0,0.0,0.0,0.0,0.0,0.0,0.0,0.0,0.0,0.0,0.0,0.0,0.0,0.0,0.0,0.0,0.0,0.0,0.0,0.0,0.0,0.0,0.0,0.016426532883304035,-0.002405160678170073,-0.014762065060750767,-0.0056099365465343,0.010271653532981873,-0.004045388661324979,0.0,0.0,0.0,0.0,0.0,0.0,0.0,0.0,0.0,0.0,0.0,0.0,0.0,0.0,0.0,0.0,0.0,0.0,0.0,0.0,0.0,0.0,0.0,0.0,0.0,0.0,0.0,0.0,0.0,0.0,0.0,0.0,0.0,0.0,0.0,0.0
1711478677247803909,3458,1711478677226602048,map,base_link,-1.9286547899246216,-1.6179441213607788,-0.005907398648560047,-0.003294402157681271,0.008112963761512094,0.06881994520634684,0.9975906582906037,0.0,0.0,0.0,0.0,0.0,0.0,0.0,0.0,0.0,0.0,0.0,0.0,0.0,0.0,0.0,0.0,0.0,0.0,0.0,0.0,0.0,0.0,0.0,0.0,0.0,0.0,0.0,0.0,0.0,0.0,0.0,0.0,0.0,0.0,0.0,0.0,0.015713203891148955,-0.002723867677924225,-0.016096041460508498,-0.003113300073891878,0.006035283207893372,-0.0013184342533349997,0.0,0.0,0.0,0.0,0.0,0.0,0.0,0.0,0.0,0.0,0.0,0.0,0.0,0.0,0.0,0.0,0.0,0.0,0.0,0.0,0.0,0.0,0.0,0.0,0.0,0.0,0.0,0.0,0.0,0.0,0.0,0.0,0.0,0.0,0.0,0.0
1711478677278812382,3459,1711478677256598464,map,base_link,-1.9287052154541016,-1.6179273128509521,-0.005743133835494518,-0.0033069785467863435,0.008119374527661179,0.06883204135186945,0.997589773206785,0.0,0.0,0.0,0.0,0.0,0.0,0.0,0.0,0.0,0.0,0.0,0.0,0.0,0.0,0.0,0.0,0.0,0.0,0.0,0.0,0.0,0.0,0.0,0.0,0.0,0.0,0.0,0.0,0.0,0.0,0.0,0.0,0.0,0.0,0.0,0.0,0.016535577898850788,-0.0025168912980235783,-0.012261932925291446,-0.010278573259711266,0.015955200418829918,0.00035252288216724797,0.0,0.0,0.0,0.0,0.0,0.0,0.0,0.0,0.0,0.0,0.0,0.0,0.0,0.0,0.0,0.0,0.0,0.0,0.0,0.0,0.0,0.0,0.0,0.0,0.0,0.0,0.0,0.0,0.0,0.0,0.0,0.0,0.0,0.0,0.0,0.0
1711478677309949907,3460,1711478677286598464,map,base_link,-1.92876136302948,-1.617908000946045,-0.005555916111916304,-0.0033443474902556955,0.008169046728900918,0.06882972327520134,0.9975893938851483,0.0,0.0,0.0,0.0,0.0,0.0,0.0,0.0,0.0,0.0,0.0,0.0,0.0,0.0,0.0,0.0,0.0,0.0,0.0,0.0,0.0,0.0,0.0,0.0,0.0,0.0,0.0,0.0,0.0,0.0,0.0,0.0,0.0,0.0,0.0,0.0,0.014686013016857439,-0.0030767243759871657,-0.01390849513647965,-0.008015967905521393,0.014418235048651695,0.0010439353063702566,0.0,0.0,0.0,0.0,0.0,0.0,0.0,0.0,0.0,0.0,0.0,0.0,0.0,0.0,0.0,0.0,0.0,0.0,0.0,0.0,0.0,0.0,0.0,0.0,0.0,0.0,0.0,0.0,0.0,0.0,0.0,0.0,0.0,0.0,0.0,0.0
1711478677334723648,3461,1711478677327598464,map,base_link,-1.9288140535354614,-1.61788809299469,-0.005297846160829067,-0.003328377292028734,0.008127774921405007,0.06883086124011119,0.997589688913088,0.0,0.0,0.0,0.0,0.0,0.0,0.0,0.0,0.0,0.0,0.0,0.0,0.0,0.0,0.0,0.0,0.0,0.0,0.0,0.0,0.0,0.0,0.0,0.0,0.0,0.0,0.0,0.0,0.0,0.0,0.0,0.0,0.0,0.0,0.0,0.0,0.015048933780509862,-0.003571375339724385,-0.012295089468446405,-0.00906289555132389,0.017446065321564674,0.0019027054077014305,0.0,0.0,0.0,0.0,0.0,0.0,0.0,0.0,0.0,0.0,0.0,0.0,0.0,0.0,0.0,0.0,0.0,0.0,0.0,0.0,0.0,0.0,0.0,0.0,0.0,0.0,0.0,0.0,0.0,0.0,0.0,0.0,0.0,0.0,0.0,0.0
1711478677369397536,3462,1711478677357592064,map,base_link,-1.9288171529769897,-1.617870807647705,-0.005112546496093273,-0.003353227304401335,0.008169711858853982,0.06883048191847453,0.9975893095914513,0.0,0.0,0.0,0.0,0.0,0.0,0.0,0.0,0.0,0.0,0.0,0.0,0.0,0.0,0.0,0.0,0.0,0.0,0.0,0.0,0.0,0.0,0.0,0.0,0.0,0.0,0.0,0.0,0.0,0.0,0.0,0.0,0.0,0.0,0.0,0.0,0.016776906651078866,-0.0025890084507266225,-0.012369634021122079,0.0023443023674190044,0.006239582784473896,-0.0011826944537460813,0.0,0.0,0.0,0.0,0.0,0.0,0.0,0.0,0.0,0.0,0.0,0.0,0.0,0.0,0.0,0.0,0.0,0.0,0.0,0.0,0.0,0.0,0.0,0.0,0.0,0.0,0.0,0.0,0.0,0.0,0.0,0.0,0.0,0.0,0.0,0.0
1711478677403680317,3463,1711478677387592064,map,base_link,-1.9288088083267212,-1.6178677082061768,-0.004951272159814835,-0.0033430713956353526,0.008152037676712614,0.06882057740907455,0.9975902789689671,0.0,0.0,0.0,0.0,0.0,0.0,0.0,0.0,0.0,0.0,0.0,0.0,0.0,0.0,0.0,0.0,0.0,0.0,0.0,0.0,0.0,0.0,0.0,0.0,0.0,0.0,0.0,0.0,0.0,0.0,0.0,0.0,0.0,0.0,0.0,0.0,0.01532824906556519,-0.0028770520989427244,-0.010309677675182158,0.010676443576812744,-0.009501530788838865,-0.011147886514663695,0.0,0.0,0.0,0.0,0.0,0.0,0.0,0.0,0.0,0.0,0.0,0.0,0.0,0.0,0.0,0.0,0.0,0.0,0.0,0.0,0.0,0.0,0.0,0.0,0.0,0.0,0.0,0.0,0.0,0.0,0.0,0.0,0.0,0.0,0.0,0.0
1711478677442097516,3464,1711478677427592064,map,base_link,-1.9288134574890137,-1.6178526878356934,-0.0047188554890453815,-0.0033570193683144264,0.008158542779362466,0.06883722541423636,0.9975888881229662,0.0,0.0,0.0,0.0,0.0,0.0,0.0,0.0,0.0,0.0,0.0,0.0,0.0,0.0,0.0,0.0,0.0,0.0,0.0,0.0,0.0,0.0,0.0,0.0,0.0,0.0,0.0,0.0,0.0,0.0,0.0,0.0,0.0,0.0,0.0,0.0,0.015878639941023846,-0.00239046312877799,-0.011140631907794737,0.010446685366332531,-0.000521430745720864,-0.005369780119508505,0.0,0.0,0.0,0.0,0.0,0.0,0.0,0.0,0.0,0.0,0.0,0.0,0.0,0.0,0.0,0.0,0.0,0.0,0.0,0.0,0.0,0.0,0.0,0.0,0.0,0.0,0.0,0.0,0.0,0.0,0.0,0.0,0.0,0.0,0.0,0.0
1711478677473420264,3465,1711478677457589248,map,base_link,-1.9288396835327148,-1.6178346872329712,-0.004508846905082464,-0.0033583927628858244,0.008169517094315746,0.0688465820146057,0.997588129479693,0.0,0.0,0.0,0.0,0.0,0.0,0.0,0.0,0.0,0.0,0.0,0.0,0.0,0.0,0.0,0.0,0.0,0.0,0.0,0.0,0.0,0.0,0.0,0.0,0.0,0.0,0.0,0.0,0.0,0.0,0.0,0.0,0.0,0.0,0.0,0.0,0.01573422937663646,-0.002948364820455696,-0.01261442936428779,0.009097645059227943,0.005086590535938739,-0.008397659286856651,0.0,0.0,0.0,0.0,0.0,0.0,0.0,0.0,0.0,0.0,0.0,0.0,0.0,0.0,0.0,0.0,0.0,0.0,0.0,0.0,0.0,0.0,0.0,0.0,0.0,0.0,0.0,0.0,0.0,0.0,0.0,0.0,0.0,0.0,0.0,0.0
1711478677508357173,3466,1711478677488589248,map,base_link,-1.9288774728775024,-1.6178144216537476,-0.0042985607869923115,-0.003359400829891419,0.008175045740096388,0.06885239827970023,0.997587708011208,0.0,0.0,0.0,0.0,0.0,0.0,0.0,0.0,0.0,0.0,0.0,0.0,0.0,0.0,0.0,0.0,0.0,0.0,0.0,0.0,0.0,0.0,0.0,0.0,0.0,0.0,0.0,0.0,0.0,0.0,0.0,0.0,0.0,0.0,0.0,0.0,0.015498049941841974,-0.0022739240747668365,-0.010255199572695708,0.0018410785123705864,-0.01261412911117077,-0.008145845495164393,0.0,0.0,0.0,0.0,0.0,0.0,0.0,0.0,0.0,0.0,0.0,0.0,0.0,0.0,0.0,0.0,0.0,0.0,0.0,0.0,0.0,0.0,0.0,0.0,0.0,0.0,0.0,0.0,0.0,0.0,0.0,0.0,0.0,0.0,0.0,0.0
1711478677535612935,3467,1711478677528589248,map,base_link,-1.9289228916168213,-1.6177799701690674,-0.004008086863905191,-0.003358768627163755,0.008158590029930916,0.06883730970793338,0.9975889724166632,0.0,0.0,0.0,0.0,0.0,0.0,0.0,0.0,0.0,0.0,0.0,0.0,0.0,0.0,0.0,0.0,0.0,0.0,0.0,0.0,0.0,0.0,0.0,0.0,0.0,0.0,0.0,0.0,0.0,0.0,0.0,0.0,0.0,0.0,0.0,0.0,0.015112571412662586,-0.0012503268501542208,-0.00909746022814569,0.005032281391322613,-0.00698993355035782,-0.011575630865991116,0.0,0.0,0.0,0.0,0.0,0.0,0.0,0.0,0.0,0.0,0.0,0.0,0.0,0.0,0.0,0.0,0.0,0.0,0.0,0.0,0.0,0.0,0.0,0.0,0.0,0.0,0.0,0.0,0.0,0.0,0.0,0.0,0.0,0.0,0.0,0.0
1711478677573317141,3468,1711478677558585664,map,base_link,-1.9289606809616089,-1.617742896080017,-0.003761942032724619,-0.003348849794420647,0.008160008370164984,0.06884021784048064,0.9975887616824207,0.0,0.0,0.0,0.0,0.0,0.0,0.0,0.0,0.0,0.0,0.0,0.0,0.0,0.0,0.0,0.0,0.0,0.0,0.0,0.0,0.0,0.0,0.0,0.0,0.0,0.0,0.0,0.0,0.0,0.0,0.0,0.0,0.0,0.0,0.0,0.0,0.015103780329255377,-0.0027329255411876834,-0.008400552340276715,0.00044119800440967083,-0.0037748038303107028,-0.004194546490907668,0.0,0.0,0.0,0.0,0.0,0.0,0.0,0.0,0.0,0.0,0.0,0.0,0.0,0.0,0.0,0.0,0.0,0.0,0.0,0.0,0.0,0.0,0.0,0.0,0.0,0.0,0.0,0.0,0.0,0.0,0.0,0.0,0.0,0.0,0.0,0.0
1711478677601329525,3469,1711478677589585664,map,base_link,-1.928978443145752,-1.61771821975708,-0.0035105219576507807,-0.0033562246697294183,0.008169056277796285,0.06882196825507536,0.9975899839410275,0.0,0.0,0.0,0.0,0.0,0.0,0.0,0.0,0.0,0.0,0.0,0.0,0.0,0.0,0.0,0.0,0.0,0.0,0.0,0.0,0.0,0.0,0.0,0.0,0.0,0.0,0.0,0.0,0.0,0.0,0.0,0.0,0.0,0.0,0.0,0.0,0.016117927358503314,-0.0024430884967619197,-0.007702347495086565,-0.006349306087940931,-0.0072823604568839065,0.006098041310906411,0.0,0.0,0.0,0.0,0.0,0.0,0.0,0.0,0.0,0.0,0.0,0.0,0.0,0.0,0.0,0.0,0.0,0.0,0.0,0.0,0.0,0.0,0.0,0.0,0.0,0.0,0.0,0.0,0.0,0.0,0.0,0.0,0.0,0.0,0.0,0.0
1711478677635729917,3470,1711478677629585664,map,base_link,-1.9290215969085693,-1.617705225944519,-0.0031188258435577154,-0.003360665893891254,0.008164375343433544,0.0688448539938168,0.9975884245076326,0.0,0.0,0.0,0.0,0.0,0.0,0.0,0.0,0.0,0.0,0.0,0.0,0.0,0.0,0.0,0.0,0.0,0.0,0.0,0.0,0.0,0.0,0.0,0.0,0.0,0.0,0.0,0.0,0.0,0.0,0.0,0.0,0.0,0.0,0.0,0.0,0.016592468202791325,-0.0031592875407253,-0.006431236321282152,-0.00452526705339551,-0.01350906491279602,0.00652484502643347,0.0,0.0,0.0,0.0,0.0,0.0,0.0,0.0,0.0,0.0,0.0,0.0,0.0,0.0,0.0,0.0,0.0,0.0,0.0,0.0,0.0,0.0,0.0,0.0,0.0,0.0,0.0,0.0,0.0,0.0,0.0,0.0,0.0,0.0,0.0,0.0
1711478677676805855,3471,1711478677659582336,map,base_link,-1.9290536642074585,-1.61770498752594,-0.002800921443849802,-0.003357476398202966,0.008110951084859572,0.06882900677877671,0.997589857500482,0.0,0.0,0.0,0.0,0.0,0.0,0.0,0.0,0.0,0.0,0.0,0.0,0.0,0.0,0.0,0.0,0.0,0.0,0.0,0.0,0.0,0.0,0.0,0.0,0.0,0.0,0.0,0.0,0.0,0.0,0.0,0.0,0.0,0.0,0.0,0.0,0.016355595774243264,-0.003188834149726885,-0.003972855721839703,-0.010382795706391335,-0.007481715641915799,-0.004958433099091052,0.0,0.0,0.0,0.0,0.0,0.0,0.0,0.0,0.0,0.0,0.0,0.0,0.0,0.0,0.0,0.0,0.0,0.0,0.0,0.0,0.0,0.0,0.0,0.0,0.0,0.0,0.0,0.0,0.0,0.0,0.0,0.0,0.0,0.0,0.0,0.0
1711478677714639695,3472,1711478677690582336,map,base_link,-1.9290897846221924,-1.6177000999450684,-0.0024488302879035473,-0.0033347324111668943,0.008157579164111162,0.06878517405632532,0.9975925548987866,0.0,0.0,0.0,0.0,0.0,0.0,0.0,0.0,0.0,0.0,0.0,0.0,0.0,0.0,0.0,0.0,0.0,0.0,0.0,0.0,0.0,0.0,0.0,0.0,0.0,0.0,0.0,0.0,0.0,0.0,0.0,0.0,0.0,0.0,0.0,0.0,0.01715410585424779,-0.0019944209957675997,-0.0046577324071152915,0.018425913527607918,-0.0018897645641118286,0.001956798834726215,0.0,0.0,0.0,0.0,0.0,0.0,0.0,0.0,0.0,0.0,0.0,0.0,0.0,0.0,0.0,0.0,0.0,0.0,0.0,0.0,0.0,0.0,0.0,0.0,0.0,0.0,0.0,0.0,0.0,0.0,0.0,0.0,0.0,0.0,0.0,0.0
1711478677732732185,3473,1711478677720582336,map,base_link,-1.9290993213653564,-1.6176972389221191,-0.0021591223776340485,-0.0033338061683164163,0.008093387208923292,0.06872292316107478,0.9975974017863655,0.0,0.0,0.0,0.0,0.0,0.0,0.0,0.0,0.0,0.0,0.0,0.0,0.0,0.0,0.0,0.0,0.0,0.0,0.0,0.0,0.0,0.0,0.0,0.0,0.0,0.0,0.0,0.0,0.0,0.0,0.0,0.0,0.0,0.0,0.0,0.0,0.016111315742156497,-0.0029323430724218385,-0.0045084337684056265,-0.004167591221630573,-0.02611087076365948,-0.02537332102656364,0.0,0.0,0.0,0.0,0.0,0.0,0.0,0.0,0.0,0.0,0.0,0.0,0.0,0.0,0.0,0.0,0.0,0.0,0.0,0.0,0.0,0.0,0.0,0.0,0.0,0.0,0.0,0.0,0.0,0.0,0.0,0.0,0.0,0.0,0.0,0.0
1711478677768023107,3474,1711478677760579520,map,base_link,-1.9290891885757446,-1.617678165435791,-0.0017840450163930655,-0.003350027930545428,0.008113492078843624,0.06873109964968588,0.9975967274367893,0.0,0.0,0.0,0.0,0.0,0.0,0.0,0.0,0.0,0.0,0.0,0.0,0.0,0.0,0.0,0.0,0.0,0.0,0.0,0.0,0.0,0.0,0.0,0.0,0.0,0.0,0.0,0.0,0.0,0.0,0.0,0.0,0.0,0.0,0.0,0.0,0.01546909450405776,-0.004494869940130268,-0.003536058684653048,-0.022308435291051865,-0.01784750632941723,-0.004383610561490056,0.0,0.0,0.0,0.0,0.0,0.0,0.0,0.0,0.0,0.0,0.0,0.0,0.0,0.0,0.0,0.0,0.0,0.0,0.0,0.0,0.0,0.0,0.0,0.0,0.0,0.0,0.0,0.0,0.0,0.0,0.0,0.0,0.0,0.0,0.0,0.0
1711478677805500777,3475,1711478677790579520,map,base_link,-1.9290727376937866,-1.6176676750183105,-0.0014915808569639921,-0.003345139554662672,0.008102423921297959,0.06860748294300346,0.997605283247037,0.0,0.0,0.0,0.0,0.0,0.0,0.0,0.0,0.0,0.0,0.0,0.0,0.0,0.0,0.0,0.0,0.0,0.0,0.0,0.0,0.0,0.0,0.0,0.0,0.0,0.0,0.0,0.0,0.0,0.0,0.0,0.0,0.0,0.0,0.0,0.0,0.016584072277072478,-0.0015893545630707012,-0.004907360448558272,0.012697691097855568,-0.020291253924369812,-0.007333007641136644,0.0,0.0,0.0,0.0,0.0,0.0,0.0,0.0,0.0,0.0,0.0,0.0,0.0,0.0,0.0,0.0,0.0,0.0,0.0,0.0,0.0,0.0,0.0,0.0,0.0,0.0,0.0,0.0,0.0,0.0,0.0,0.0,0.0,0.0,0.0,0.0
1711478677844300394,3476,1711478677820579520,map,base_link,-1.9290590286254883,-1.617648959159851,-0.0012124403147026896,-0.003367732899642543,0.008086019577604108,0.06861334135494644,0.9976049039254004,0.0,0.0,0.0,0.0,0.0,0.0,0.0,0.0,0.0,0.0,0.0,0.0,0.0,0.0,0.0,0.0,0.0,0.0,0.0,0.0,0.0,0.0,0.0,0.0,0.0,0.0,0.0,0.0,0.0,0.0,0.0,0.0,0.0,0.0,0.0,0.0,0.015204624169233518,-0.005532127371901665,-0.0016817739213718303,-0.014392340555787086,0.00147797167301178,0.0021886469330638647,0.0,0.0,0.0,0.0,0.0,0.0,0.0,0.0,0.0,0.0,0.0,0.0,0.0,0.0,0.0,0.0,0.0,0.0,0.0,0.0,0.0,0.0,0.0,0.0,0.0,0.0,0.0,0.0,0.0,0.0,0.0,0.0,0.0,0.0,0.0,0.0
1711478677867550085,3477,1711478677861576192,map,base_link,-1.9290337562561035,-1.6176388263702393,-0.0008215853595174849,-0.0033320592143728654,0.008100369591705306,0.0685684549612824,0.9976079806453416,0.0,0.0,0.0,0.0,0.0,0.0,0.0,0.0,0.0,0.0,0.0,0.0,0.0,0.0,0.0,0.0,0.0,0.0,0.0,0.0,0.0,0.0,0.0,0.0,0.0,0.0,0.0,0.0,0.0,0.0,0.0,0.0,0.0,0.0,0.0,0.0,0.015580339635652304,-0.0037371243741776187,-0.0008639946802688047,-0.007251910399645567,-0.014426808804273607,-0.017305139452219006,0.0,0.0,0.0,0.0,0.0,0.0,0.0,0.0,0.0,0.0,0.0,0.0,0.0,0.0,0.0,0.0,0.0,0.0,0.0,0.0,0.0,0.0,0.0,0.0,0.0,0.0,0.0,0.0,0.0,0.0,0.0,0.0,0.0,0.0,0.0,0.0
1711478677913414552,3478,1711478677891576192,map,base_link,-1.929010033607483,-1.6176563501358032,-0.0003564123762771487,-0.0033440093276508468,0.008077830082738963,0.06852327353967873,0.9976112680995255,0.0,0.0,0.0,0.0,0.0,0.0,0.0,0.0,0.0,0.0,0.0,0.0,0.0,0.0,0.0,0.0,0.0,0.0,0.0,0.0,0.0,0.0,0.0,0.0,0.0,0.0,0.0,0.0,0.0,0.0,0.0,0.0,0.0,0.0,0.0,0.0,0.015872347209327536,-0.002574309496804758,0.00818135947060352,-0.005715377163141966,-0.006445769220590591,-0.0009235332254320375,0.0,0.0,0.0,0.0,0.0,0.0,0.0,0.0,0.0,0.0,0.0,0.0,0.0,0.0,0.0,0.0,0.0,0.0,0.0,0.0,0.0,0.0,0.0,0.0,0.0,0.0,0.0,0.0,0.0,0.0,0.0,0.0,0.0,0.0,0.0,0.0
1711478677934875862,3479,1711478677921576192,map,base_link,-1.9289805889129639,-1.6177124977111816,0.00028017594013363123,-0.0033359772249231083,0.00813906467917761,0.06853212437786599,0.9976100879877673,0.0,0.0,0.0,0.0,0.0,0.0,0.0,0.0,0.0,0.0,0.0,0.0,0.0,0.0,0.0,0.0,0.0,0.0,0.0,0.0,0.0,0.0,0.0,0.0,0.0,0.0,0.0,0.0,0.0,0.0,0.0,0.0,0.0,0.0,0.0,0.0,0.014800972995626459,-0.0026909300703950416,0.01021854669425965,0.008865520358085632,-0.006334233097732067,-0.00047836988233029766,0.0,0.0,0.0,0.0,0.0,0.0,0.0,0.0,0.0,0.0,0.0,0.0,0.0,0.0,0.0,0.0,0.0,0.0,0.0,0.0,0.0,0.0,0.0,0.0,0.0,0.0,0.0,0.0,0.0,0.0,0.0,0.0,0.0,0.0,0.0,0.0
1711478677979434596,3480,1711478677962573376,map,base_link,-1.9289487600326538,-1.617793321609497,0.0012079834705218673,-0.003324953189859478,0.008175650777863096,0.06846312998685368,0.9976145977005578,0.0,0.0,0.0,0.0,0.0,0.0,0.0,0.0,0.0,0.0,0.0,0.0,0.0,0.0,0.0,0.0,0.0,0.0,0.0,0.0,0.0,0.0,0.0,0.0,0.0,0.0,0.0,0.0,0.0,0.0,0.0,0.0,0.0,0.0,0.0,0.0,0.015933560041673074,-0.005164876151615445,0.014071449567952064,0.0026910321321338415,-0.010347704403102398,-0.0013864296488463866,0.0,0.0,0.0,0.0,0.0,0.0,0.0,0.0,0.0,0.0,0.0,0.0,0.0,0.0,0.0,0.0,0.0,0.0,0.0,0.0,0.0,0.0,0.0,0.0,0.0,0.0,0.0,0.0,0.0,0.0,0.0,0.0,0.0,0.0,0.0,0.0
1711478678012805603,3481,1711478677992573376,map,base_link,-1.928932785987854,-1.6178640127182007,0.001902897609397769,-0.0033544135076963386,0.00813249800261626,0.06839708587523703,0.9976193602944396,0.0,0.0,0.0,0.0,0.0,0.0,0.0,0.0,0.0,0.0,0.0,0.0,0.0,0.0,0.0,0.0,0.0,0.0,0.0,0.0,0.0,0.0,0.0,0.0,0.0,0.0,0.0,0.0,0.0,0.0,0.0,0.0,0.0,0.0,0.0,0.0,0.015471106856243385,-0.007486897094898632,0.013493428961750065,-0.015286257490515709,-0.021019047126173973,-0.00548724830150604,0.0,0.0,0.0,0.0,0.0,0.0,0.0,0.0,0.0,0.0,0.0,0.0,0.0,0.0,0.0,0.0,0.0,0.0,0.0,0.0,0.0,0.0,0.0,0.0,0.0,0.0,0.0,0.0,0.0,0.0,0.0,0.0,0.0,0.0,0.0,0.0
1711478678045545808,3482,1711478678022573376,map,base_link,-1.9289454221725464,-1.617946982383728,0.002640828490257263,-0.0033752615450939284,0.008172778700627657,0.06836303122164021,0.9976213833431681,0.0,0.0,0.0,0.0,0.0,0.0,0.0,0.0,0.0,0.0,0.0,0.0,0.0,0.0,0.0,0.0,0.0,0.0,0.0,0.0,0.0,0.0,0.0,0.0,0.0,0.0,0.0,0.0,0.0,0.0,0.0,0.0,0.0,0.0,0.0,0.0,0.014196359159258314,-0.00597013461433929,0.018409409108397553,0.009327675215899944,0.006319791078567504,-0.005482413340359927,0.0,0.0,0.0,0.0,0.0,0.0,0.0,0.0,0.0,0.0,0.0,0.0,0.0,0.0,0.0,0.0,0.0,0.0,0.0,0.0,0.0,0.0,0.0,0.0,0.0,0.0,0.0,0.0,0.0,0.0,0.0,0.0,0.0,0.0,0.0,0.0
1711478678071577364,3483,1711478678052570048,map,base_link,-1.9289690256118774,-1.6180227994918823,0.0033470075577497482,-0.003389653212135256,0.008185332040674951,0.06822976288664884,0.9976304027687495,0.0,0.0,0.0,0.0,0.0,0.0,0.0,0.0,0.0,0.0,0.0,0.0,0.0,0.0,0.0,0.0,0.0,0.0,0.0,0.0,0.0,0.0,0.0,0.0,0.0,0.0,0.0,0.0,0.0,0.0,0.0,0.0,0.0,0.0,0.0,0.0,0.012027863662384335,-0.002624553662737903,0.012195648406557666,-0.006046118214726448,0.0027282449882477518,-0.0036303554661571984,0.0,0.0,0.0,0.0,0.0,0.0,0.0,0.0,0.0,0.0,0.0,0.0,0.0,0.0,0.0,0.0,0.0,0.0,0.0,0.0,0.0,0.0,0.0,0.0,0.0,0.0,0.0,0.0,0.0,0.0,0.0,0.0,0.0,0.0,0.0,0.0
1711478678116611158,3484,1711478678093570048,map,base_link,-1.9290533065795898,-1.618111491203308,0.00419184286147356,-0.0033755320422505825,0.008257447274110614,0.06822078560791603,0.9976303606219009,0.0,0.0,0.0,0.0,0.0,0.0,0.0,0.0,0.0,0.0,0.0,0.0,0.0,0.0,0.0,0.0,0.0,0.0,0.0,0.0,0.0,0.0,0.0,0.0,0.0,0.0,0.0,0.0,0.0,0.0,0.0,0.0,0.0,0.0,0.0,0.0,0.014814787163698702,-0.002373581624608857,0.013389764385306561,0.010711876675486565,0.0027753647882491324,-0.02282837964594364,0.0,0.0,0.0,0.0,0.0,0.0,0.0,0.0,0.0,0.0,0.0,0.0,0.0,0.0,0.0,0.0,0.0,0.0,0.0,0.0,0.0,0.0,0.0,0.0,0.0,0.0,0.0,0.0,0.0,0.0,0.0,0.0,0.0,0.0,0.0,0.0
1711478678144031297,3485,1711478678123570048,map,base_link,-1.9290294647216797,-1.6181751489639282,0.004776547662913799,-0.0033656252279447444,0.008284484148158099,0.06806113334575674,0.9976411502151198,0.0,0.0,0.0,0.0,0.0,0.0,0.0,0.0,0.0,0.0,0.0,0.0,0.0,0.0,0.0,0.0,0.0,0.0,0.0,0.0,0.0,0.0,0.0,0.0,0.0,0.0,0.0,0.0,0.0,0.0,0.0,0.0,0.0,0.0,0.0,0.0,0.005215685595335837,-0.007487506932039468,0.013447477662993363,-0.012482145801186562,-0.019680164754390717,-0.010808396153151987,0.0,0.0,0.0,0.0,0.0,0.0,0.0,0.0,0.0,0.0,0.0,0.0,0.0,0.0,0.0,0.0,0.0,0.0,0.0,0.0,0.0,0.0,0.0,0.0,0.0,0.0,0.0,0.0,0.0,0.0,0.0,0.0,0.0,0.0,0.0,0.0
1711478678184261896,3486,1711478678153566976,map,base_link,-1.929145336151123,-1.6182600259780884,0.005334736313670874,-0.0033519123556550205,0.00834502743749949,0.06810016132747786,0.99763803134833,0.0,0.0,0.0,0.0,0.0,0.0,0.0,0.0,0.0,0.0,0.0,0.0,0.0,0.0,0.0,0.0,0.0,0.0,0.0,0.0,0.0,0.0,0.0,0.0,0.0,0.0,0.0,0.0,0.0,0.0,0.0,0.0,0.0,0.0,0.0,0.0,0.019892846330647366,-0.006675226012432821,0.013706060290059188,-0.0017175537068396807,-0.01384404767304659,-0.015591016970574854,0.0,0.0,0.0,0.0,0.0,0.0,0.0,0.0,0.0,0.0,0.0,0.0,0.0,0.0,0.0,0.0,0.0,0.0,0.0,0.0,0.0,0.0,0.0,0.0,0.0,0.0,0.0,0.0,0.0,0.0,0.0,0.0,0.0,0.0,0.0,0.0
1711478678202363970,3487,1711478678193566976,map,base_link,-1.9291502237319946,-1.6183178424835205,0.006047817412763834,-0.0033836105723661337,0.008335956810082663,0.06809952912475013,0.9976380734951784,0.0,0.0,0.0,0.0,0.0,0.0,0.0,0.0,0.0,0.0,0.0,0.0,0.0,0.0,0.0,0.0,0.0,0.0,0.0,0.0,0.0,0.0,0.0,0.0,0.0,0.0,0.0,0.0,0.0,0.0,0.0,0.0,0.0,0.0,0.0,0.0,0.015569874706691847,-0.006711311287965314,0.015070945635306752,0.0078035080805420876,0.002268126467242837,0.0010506366379559038,0.0,0.0,0.0,0.0,0.0,0.0,0.0,0.0,0.0,0.0,0.0,0.0,0.0,0.0,0.0,0.0,0.0,0.0,0.0,0.0,0.0,0.0,0.0,0.0,0.0,0.0,0.0,0.0,0.0,0.0,0.0,0.0,0.0,0.0,0.0,0.0
1711478678261697846,3488,1711478678224566976,map,base_link,-1.9291142225265503,-1.6182841062545776,0.006541302893310785,-0.0033720676042302126,0.008375175769711066,0.06800461442190359,0.997644142641364,0.0,0.0,0.0,0.0,0.0,0.0,0.0,0.0,0.0,0.0,0.0,0.0,0.0,0.0,0.0,0.0,0.0,0.0,0.0,0.0,0.0,0.0,0.0,0.0,0.0,0.0,0.0,0.0,0.0,0.0,0.0,0.0,0.0,0.0,0.0,0.0,0.01677700190547925,-0.001466046780582423,0.014125251339426983,-0.010939319618046284,-0.020150307565927505,-0.00951332878321409,0.0,0.0,0.0,0.0,0.0,0.0,0.0,0.0,0.0,0.0,0.0,0.0,0.0,0.0,0.0,0.0,0.0,0.0,0.0,0.0,0.0,0.0,0.0,0.0,0.0,0.0,0.0,0.0,0.0,0.0,0.0,0.0,0.0,0.0,0.0,0.0
1711478678279077233,3489,1711478678254562880,map,base_link,-1.9292287826538086,-1.6183884143829346,0.006968819070607424,-0.0034033524196264396,0.008419912015227349,0.06787825817006801,0.9976523191299751,0.0,0.0,0.0,0.0,0.0,0.0,0.0,0.0,0.0,0.0,0.0,0.0,0.0,0.0,0.0,0.0,0.0,0.0,0.0,0.0,0.0,0.0,0.0,0.0,0.0,0.0,0.0,0.0,0.0,0.0,0.0,0.0,0.0,0.0,0.0,0.0,0.00846212475248353,-0.006376161008376303,0.01335137210526946,-0.02597712352871895,-0.021190915256738663,-0.010446861386299132,0.0,0.0,0.0,0.0,0.0,0.0,0.0,0.0,0.0,0.0,0.0,0.0,0.0,0.0,0.0,0.0,0.0,0.0,0.0,0.0,0.0,0.0,0.0,0.0,0.0,0.0,0.0,0.0,0.0,0.0,0.0,0.0,0.0,0.0,0.0,0.0
1711478678315677552,3490,1711478678294562880,map,base_link,-1.9293767213821411,-1.618514895439148,0.007451930083334446,-0.003444494823126533,0.008423646785768246,0.06784702735532143,0.997654215738158,0.0,0.0,0.0,0.0,0.0,0.0,0.0,0.0,0.0,0.0,0.0,0.0,0.0,0.0,0.0,0.0,0.0,0.0,0.0,0.0,0.0,0.0,0.0,0.0,0.0,0.0,0.0,0.0,0.0,0.0,0.0,0.0,0.0,0.0,0.0,0.0,0.010029087856699696,-0.005360870478866968,0.009770932031765432,-0.022362908348441124,-0.018036222085356716,-0.01797845028340816,0.0,0.0,0.0,0.0,0.0,0.0,0.0,0.0,0.0,0.0,0.0,0.0,0.0,0.0,0.0,0.0,0.0,0.0,0.0,0.0,0.0,0.0,0.0,0.0,0.0,0.0,0.0,0.0,0.0,0.0,0.0,0.0,0.0,0.0,0.0,0.0
1711478678343664001,3491,1711478678325562880,map,base_link,-1.9295424222946167,-1.6186118125915527,0.007708968129009008,-0.003426653864588519,0.008442335949632541,0.06786439185690787,0.9976530356263998,0.0,0.0,0.0,0.0,0.0,0.0,0.0,0.0,0.0,0.0,0.0,0.0,0.0,0.0,0.0,0.0,0.0,0.0,0.0,0.0,0.0,0.0,0.0,0.0,0.0,0.0,0.0,0.0,0.0,0.0,0.0,0.0,0.0,0.0,0.0,0.0,0.014502551379624015,-0.007317636077852177,0.01201445030754669,0.025589704513549805,0.0010314607061445728,0.012192518450319767,0.0,0.0,0.0,0.0,0.0,0.0,0.0,0.0,0.0,0.0,0.0,0.0,0.0,0.0,0.0,0.0,0.0,0.0,0.0,0.0,0.0,0.0,0.0,0.0,0.0,0.0,0.0,0.0,0.0,0.0,0.0,0.0,0.0,0.0,0.0,0.0
1711478678382973610,3492,1711478678355559040,map,base_link,-1.9296674728393555,-1.6186633110046387,0.007955058477818966,-0.0034220542604725137,0.008508662247570782,0.06778502934116185,0.9976577982202816,0.0,0.0,0.0,0.0,0.0,0.0,0.0,0.0,0.0,0.0,0.0,0.0,0.0,0.0,0.0,0.0,0.0,0.0,0.0,0.0,0.0,0.0,0.0,0.0,0.0,0.0,0.0,0.0,0.0,0.0,0.0,0.0,0.0,0.0,0.0,0.0,0.015853021487808518,0.0013538482232597145,0.009071411397229195,0.019578060135245323,-0.01465470436960459,-0.011405026540160177,0.0,0.0,0.0,0.0,0.0,0.0,0.0,0.0,0.0,0.0,0.0,0.0,0.0,0.0,0.0,0.0,0.0,0.0,0.0,0.0,0.0,0.0,0.0,0.0,0.0,0.0,0.0,0.0,0.0,0.0,0.0,0.0,0.0,0.0,0.0,0.0
1711478678414281506,3493,1711478678395559040,map,base_link,-1.9299283027648926,-1.6188206672668457,0.00819416530430317,-0.003450481815884731,0.008464399330919612,0.0678270918959757,0.9976552694093709,0.0,0.0,0.0,0.0,0.0,0.0,0.0,0.0,0.0,0.0,0.0,0.0,0.0,0.0,0.0,0.0,0.0,0.0,0.0,0.0,0.0,0.0,0.0,0.0,0.0,0.0,0.0,0.0,0.0,0.0,0.0,0.0,0.0,0.0,0.0,0.0,0.011221779604211949,-0.008294185305147417,0.010420413442980142,7.055141031742096e-05,0.007278848439455032,0.0025787008926272384,0.0,0.0,0.0,0.0,0.0,0.0,0.0,0.0,0.0,0.0,0.0,0.0,0.0,0.0,0.0,0.0,0.0,0.0,0.0,0.0,0.0,0.0,0.0,0.0,0.0,0.0,0.0,0.0,0.0,0.0,0.0,0.0,0.0,0.0,0.0,0.0
1711478678446994520,3494,1711478678425559040,map,base_link,-1.9300875663757324,-1.6189054250717163,0.00831055361777544,-0.0034396444781891133,0.008500731560697273,0.06777845443279418,0.9976582196887667,0.0,0.0,0.0,0.0,0.0,0.0,0.0,0.0,0.0,0.0,0.0,0.0,0.0,0.0,0.0,0.0,0.0,0.0,0.0,0.0,0.0,0.0,0.0,0.0,0.0,0.0,0.0,0.0,0.0,0.0,0.0,0.0,0.0,0.0,0.0,0.0,0.007824468555284288,-0.0064727907000008845,0.006582745570622266,-0.023868344724178314,-0.012652696110308172,-0.007476196624338625,0.0,0.0,0.0,0.0,0.0,0.0,0.0,0.0,0.0,0.0,0.0,0.0,0.0,0.0,0.0,0.0,0.0,0.0,0.0,0.0,0.0,0.0,0.0,0.0,0.0,0.0,0.0,0.0,0.0,0.0,0.0,0.0,0.0,0.0,0.0,0.0
1711478678477610340,3495,1711478678456555968,map,base_link,-1.9302787780761719,-1.619039535522461,0.008401847444474697,-0.003483504036329143,0.008517783418278597,0.06769458220425752,0.997663698779073,0.0,0.0,0.0,0.0,0.0,0.0,0.0,0.0,0.0,0.0,0.0,0.0,0.0,0.0,0.0,0.0,0.0,0.0,0.0,0.0,0.0,0.0,0.0,0.0,0.0,0.0,0.0,0.0,0.0,0.0,0.0,0.0,0.0,0.0,0.0,0.0,0.017828563313397414,0.0027234206394848954,0.00801820464742018,-0.012474535033106804,0.002798510016873478,-0.007461428642272949,0.0,0.0,0.0,0.0,0.0,0.0,0.0,0.0,0.0,0.0,0.0,0.0,0.0,0.0,0.0,0.0,0.0,0.0,0.0,0.0,0.0,0.0,0.0,0.0,0.0,0.0,0.0,0.0,0.0,0.0,0.0,0.0,0.0,0.0,0.0,0.0
1711478678523106268,3496,1711478678486555968,map,base_link,-1.9304858446121216,-1.6191686391830444,0.008458604104816914,-0.0035045843753019243,0.008605659268151556,0.0675864333909785,0.9976701893937437,0.0,0.0,0.0,0.0,0.0,0.0,0.0,0.0,0.0,0.0,0.0,0.0,0.0,0.0,0.0,0.0,0.0,0.0,0.0,0.0,0.0,0.0,0.0,0.0,0.0,0.0,0.0,0.0,0.0,0.0,0.0,0.0,0.0,0.0,0.0,0.0,0.014235573782326635,-0.004058326489288569,0.011601474932076864,0.009053175337612629,0.004876203835010523,-0.03940530866384506,0.0,0.0,0.0,0.0,0.0,0.0,0.0,0.0,0.0,0.0,0.0,0.0,0.0,0.0,0.0,0.0,0.0,0.0,0.0,0.0,0.0,0.0,0.0,0.0,0.0,0.0,0.0,0.0,0.0,0.0,0.0,0.0,0.0,0.0,0.0,0.0
1711478678537804598,3497,1711478678526555968,map,base_link,-1.9307303428649902,-1.6193511486053467,0.008569138124585152,-0.0035574031022008053,0.008573488545755965,0.06756013375750777,0.9976721281487753,0.0,0.0,0.0,0.0,0.0,0.0,0.0,0.0,0.0,0.0,0.0,0.0,0.0,0.0,0.0,0.0,0.0,0.0,0.0,0.0,0.0,0.0,0.0,0.0,0.0,0.0,0.0,0.0,0.0,0.0,0.0,0.0,0.0,0.0,0.0,0.0,0.001841128907357995,-0.01359193533495978,0.007323719153457505,0.012955637648701668,-0.009061540476977825,-0.005359571892768144,0.0,0.0,0.0,0.0,0.0,0.0,0.0,0.0,0.0,0.0,0.0,0.0,0.0,0.0,0.0,0.0,0.0,0.0,0.0,0.0,0.0,0.0,0.0,0.0,0.0,0.0,0.0,0.0,0.0,0.0,0.0,0.0,0.0,0.0,0.0,0.0
1711478678568541820,3498,1711478678556553152,map,base_link,-1.9309115409851074,-1.6195242404937744,0.008639049716293812,-0.003501003704175895,0.00858557448383872,0.06744591579804321,0.9976798831689013,0.0,0.0,0.0,0.0,0.0,0.0,0.0,0.0,0.0,0.0,0.0,0.0,0.0,0.0,0.0,0.0,0.0,0.0,0.0,0.0,0.0,0.0,0.0,0.0,0.0,0.0,0.0,0.0,0.0,0.0,0.0,0.0,0.0,0.0,0.0,0.0,0.0029882636837366746,-0.00970820969129737,0.01861890838135134,0.01778435707092285,0.0019063439685851292,-0.03538025543093681,0.0,0.0,0.0,0.0,0.0,0.0,0.0,0.0,0.0,0.0,0.0,0.0,0.0,0.0,0.0,0.0,0.0,0.0,0.0,0.0,0.0,0.0,0.0,0.0,0.0,0.0,0.0,0.0,0.0,0.0,0.0,0.0,0.0,0.0,0.0,0.0
1711478678619064805,3499,1711478678587553152,map,base_link,-1.931071162223816,-1.6196308135986328,0.00870011281222105,-0.003595565756438404,0.008584757559376566,0.06744768596568068,0.9976794617004162,0.0,0.0,0.0,0.0,0.0,0.0,0.0,0.0,0.0,0.0,0.0,0.0,0.0,0.0,0.0,0.0,0.0,0.0,0.0,0.0,0.0,0.0,0.0,0.0,0.0,0.0,0.0,0.0,0.0,0.0,0.0,0.0,0.0,0.0,0.0,0.0,0.0075511332695129794,-0.011261395951362977,0.008186004968213112,-0.010312129743397236,0.009483006782829763,0.008114784024655817,0.0,0.0,0.0,0.0,0.0,0.0,0.0,0.0,0.0,0.0,0.0,0.0,0.0,0.0,0.0,0.0,0.0,0.0,0.0,0.0,0.0,0.0,0.0,0.0,0.0,0.0,0.0,0.0,0.0,0.0,0.0,0.0,0.0,0.0,0.0,0.0
1711478678650149653,3500,1711478678627553152,map,base_link,-1.9313308000564575,-1.6197720766067505,0.008770093321800232,-0.0036414636744667673,0.008649130285031878,0.06735496289895665,0.9976849407907226,0.0,0.0,0.0,0.0,0.0,0.0,0.0,0.0,0.0,0.0,0.0,0.0,0.0,0.0,0.0,0.0,0.0,0.0,0.0,0.0,0.0,0.0,0.0,0.0,0.0,0.0,0.0,0.0,0.0,0.0,0.0,0.0,0.0,0.0,0.0,0.0,-0.0006459312743597983,-0.01713328287336431,0.01093590724784815,0.015009451657533646,0.00018249126151204204,0.007690827827900648,0.0,0.0,0.0,0.0,0.0,0.0,0.0,0.0,0.0,0.0,0.0,0.0,0.0,0.0,0.0,0.0,0.0,0.0,0.0,0.0,0.0,0.0,0.0,0.0,0.0,0.0,0.0,0.0,0.0,0.0,0.0,0.0,0.0,0.0,0.0,0.0
1711478678678837534,3501,1711478678657549056,map,base_link,-1.931501030921936,-1.6199318170547485,0.008806121535599232,-0.003723794250310259,0.008690027874611128,0.06732866326548587,0.9976861209024809,0.0,0.0,0.0,0.0,0.0,0.0,0.0,0.0,0.0,0.0,0.0,0.0,0.0,0.0,0.0,0.0,0.0,0.0,0.0,0.0,0.0,0.0,0.0,0.0,0.0,0.0,0.0,0.0,0.0,0.0,0.0,0.0,0.0,0.0,0.0,0.0,0.000562144611902927,-0.025220327634289216,0.004419124515252305,0.046356044709682465,-0.023539660498499874,-0.02401494979858398,0.0,0.0,0.0,0.0,0.0,0.0,0.0,0.0,0.0,0.0,0.0,0.0,0.0,0.0,0.0,0.0,0.0,0.0,0.0,0.0,0.0,0.0,0.0,0.0,0.0,0.0,0.0,0.0,0.0,0.0,0.0,0.0,0.0,0.0,0.0,0.0
1711478678714564557,3502,1711478678688549056,map,base_link,-1.9317002296447754,-1.6201484203338623,0.008709998801350594,-0.00371248572401918,0.008694303145556952,0.06714937057192058,0.9976982591948521,0.0,0.0,0.0,0.0,0.0,0.0,0.0,0.0,0.0,0.0,0.0,0.0,0.0,0.0,0.0,0.0,0.0,0.0,0.0,0.0,0.0,0.0,0.0,0.0,0.0,0.0,0.0,0.0,0.0,0.0,0.0,0.0,0.0,0.0,0.0,0.0,0.01094038496340174,-0.006690436982067867,0.005536613657436727,-0.0052441880106925964,0.0077957380563020715,0.007893500849604605,0.0,0.0,0.0,0.0,0.0,0.0,0.0,0.0,0.0,0.0,0.0,0.0,0.0,0.0,0.0,0.0,0.0,0.0,0.0,0.0,0.0,0.0,0.0,0.0,0.0,0.0,0.0,0.0,0.0,0.0,0.0,0.0,0.0,0.0,0.0,0.0
1711478678740439212,3503,1711478678718549056,map,base_link,-1.931868076324463,-1.6203033924102783,0.008627360686659813,-0.0037356245084877874,0.0088280191261777,0.06704396130379477,0.997704033313098,0.0,0.0,0.0,0.0,0.0,0.0,0.0,0.0,0.0,0.0,0.0,0.0,0.0,0.0,0.0,0.0,0.0,0.0,0.0,0.0,0.0,0.0,0.0,0.0,0.0,0.0,0.0,0.0,0.0,0.0,0.0,0.0,0.0,0.0,0.0,0.0,0.01789687380573898,0.009747186433696016,0.009050151540269764,-0.004053281620144844,0.022190922871232033,0.006335343234241006,0.0,0.0,0.0,0.0,0.0,0.0,0.0,0.0,0.0,0.0,0.0,0.0,0.0,0.0,0.0,0.0,0.0,0.0,0.0,0.0,0.0,0.0,0.0,0.0,0.0,0.0,0.0,0.0,0.0,0.0,0.0,0.0,0.0,0.0,0.0,0.0
1711478678791154280,3504,1711478678758544704,map,base_link,-1.9321695566177368,-1.6205902099609375,0.008517803624272346,-0.0038168600894506305,0.00885998602904807,0.06699026621879192,0.9977069835924938,0.0,0.0,0.0,0.0,0.0,0.0,0.0,0.0,0.0,0.0,0.0,0.0,0.0,0.0,0.0,0.0,0.0,0.0,0.0,0.0,0.0,0.0,0.0,0.0,0.0,0.0,0.0,0.0,0.0,0.0,0.0,0.0,0.0,0.0,0.0,0.0,-0.0012092730963559892,-0.012094323754519578,0.00676816086109259,0.00031612091697752476,0.005531398579478262,-0.013295793905854225,0.0,0.0,0.0,0.0,0.0,0.0,0.0,0.0,0.0,0.0,0.0,0.0,0.0,0.0,0.0,0.0,0.0,0.0,0.0,0.0,0.0,0.0,0.0,0.0,0.0,0.0,0.0,0.0,0.0,0.0,0.0,0.0,0.0,0.0,0.0,0.0
1711478678813358255,3505,1711478678789544704,map,base_link,-1.9322465658187866,-1.6207877397537231,0.00831760186702013,-0.003988646198805605,0.008881377365664746,0.06674046184766787,0.9977228729543824,0.0,0.0,0.0,0.0,0.0,0.0,0.0,0.0,0.0,0.0,0.0,0.0,0.0,0.0,0.0,0.0,0.0,0.0,0.0,0.0,0.0,0.0,0.0,0.0,0.0,0.0,0.0,0.0,0.0,0.0,0.0,0.0,0.0,0.0,0.0,0.0,0.012678038012316758,0.002715925176958751,0.0014406294656683428,-0.019365213811397552,0.004936791025102142,0.02992238849401474,0.0,0.0,0.0,0.0,0.0,0.0,0.0,0.0,0.0,0.0,0.0,0.0,0.0,0.0,0.0,0.0,0.0,0.0,0.0,0.0,0.0,0.0,0.0,0.0,0.0,0.0,0.0,0.0,0.0,0.0,0.0,0.0,0.0,0.0,0.0,0.0
1711478678850903842,3506,1711478678819544704,map,base_link,-1.932436227798462,-1.6208347082138062,0.008068636059761047,-0.003966924766754303,0.009020380306231706,0.06685151879349409,0.9977142328504377,0.0,0.0,0.0,0.0,0.0,0.0,0.0,0.0,0.0,0.0,0.0,0.0,0.0,0.0,0.0,0.0,0.0,0.0,0.0,0.0,0.0,0.0,0.0,0.0,0.0,0.0,0.0,0.0,0.0,0.0,0.0,0.0,0.0,0.0,0.0,0.0,0.006393448376648974,0.010938316061848025,-0.0019630753308144708,0.010433420538902283,0.013979190029203887,-0.042398806661367416,0.0,0.0,0.0,0.0,0.0,0.0,0.0,0.0,0.0,0.0,0.0,0.0,0.0,0.0,0.0,0.0,0.0,0.0,0.0,0.0,0.0,0.0,0.0,0.0,0.0,0.0,0.0,0.0,0.0,0.0,0.0,0.0,0.0,0.0,0.0,0.0
1711478678879204561,3507,1711478678859541632,map,base_link,-1.932829737663269,-1.6209626197814941,0.007683447562158108,-0.004076717471761309,0.00895944501827194,0.06640033678018492,0.997744536434517,0.0,0.0,0.0,0.0,0.0,0.0,0.0,0.0,0.0,0.0,0.0,0.0,0.0,0.0,0.0,0.0,0.0,0.0,0.0,0.0,0.0,0.0,0.0,0.0,0.0,0.0,0.0,0.0,0.0,0.0,0.0,0.0,0.0,0.0,0.0,0.0,-0.001852038032693042,-0.01572936337307341,0.003387174603189417,-0.014673683792352676,0.007657740265130998,0.00680372817441821,0.0,0.0,0.0,0.0,0.0,0.0,0.0,0.0,0.0,0.0,0.0,0.0,0.0,0.0,0.0,0.0,0.0,0.0,0.0,0.0,0.0,0.0,0.0,0.0,0.0,0.0,0.0,0.0,0.0,0.0,0.0,0.0,0.0,0.0,0.0,0.0
1711478678921652831,3508,1711478678889541632,map,base_link,-1.93288254737854,-1.6211366653442383,0.007331511005759239,-0.004477231399898494,0.008938339654607854,0.06611479188152361,0.997761943082952,0.0,0.0,0.0,0.0,0.0,0.0,0.0,0.0,0.0,0.0,0.0,0.0,0.0,0.0,0.0,0.0,0.0,0.0,0.0,0.0,0.0,0.0,0.0,0.0,0.0,0.0,0.0,0.0,0.0,0.0,0.0,0.0,0.0,0.0,0.0,0.0,0.01120797179774234,-0.035262667483619295,0.0007143942137465497,-0.020066583529114723,-0.02653774246573449,-0.06269941478967667,0.0,0.0,0.0,0.0,0.0,0.0,0.0,0.0,0.0,0.0,0.0,0.0,0.0,0.0,0.0,0.0,0.0,0.0,0.0,0.0,0.0,0.0,0.0,0.0,0.0,0.0,0.0,0.0,0.0,0.0,0.0,0.0,0.0,0.0,0.0,0.0
1711478678948196035,3509,1711478678930541632,map,base_link,-1.9333579540252686,-1.621260643005371,0.006898815277963877,-0.004905052369967563,0.008851909474566043,0.06580728847478821,0.9977809934584789,0.0,0.0,0.0,0.0,0.0,0.0,0.0,0.0,0.0,0.0,0.0,0.0,0.0,0.0,0.0,0.0,0.0,0.0,0.0,0.0,0.0,0.0,0.0,0.0,0.0,0.0,0.0,0.0,0.0,0.0,0.0,0.0,0.0,0.0,0.0,0.0,0.004344776703812995,-0.02092735811309258,0.00756949008526886,-0.08847013860940933,-0.02840814366936684,-0.024969339370727536,0.0,0.0,0.0,0.0,0.0,0.0,0.0,0.0,0.0,0.0,0.0,0.0,0.0,0.0,0.0,0.0,0.0,0.0,0.0,0.0,0.0,0.0,0.0,0.0,0.0,0.0,0.0,0.0,0.0,0.0,0.0,0.0,0.0,0.0,0.0,0.0
1711478678994363413,3510,1711478678960537536,map,base_link,-1.9336179494857788,-1.621442437171936,0.006583576090633869,-0.007042817329193351,0.008191043844146876,0.0651639589791179,0.997816143930137,0.0,0.0,0.0,0.0,0.0,0.0,0.0,0.0,0.0,0.0,0.0,0.0,0.0,0.0,0.0,0.0,0.0,0.0,0.0,0.0,0.0,0.0,0.0,0.0,0.0,0.0,0.0,0.0,0.0,0.0,0.0,0.0,0.0,0.0,0.0,0.0,-0.00015113871767004713,-0.018814183264928314,0.003714176494440801,-0.11509095877408981,-0.008412826806306846,-0.05634582042694092,0.0,0.0,0.0,0.0,0.0,0.0,0.0,0.0,0.0,0.0,0.0,0.0,0.0,0.0,0.0,0.0,0.0,0.0,0.0,0.0,0.0,0.0,0.0,0.0,0.0,0.0,0.0,0.0,0.0,0.0,0.0,0.0,0.0,0.0,0.0,0.0
1711478679021507327,3511,1711478678990537536,map,base_link,-1.9336720705032349,-1.6216168403625488,0.006277324631810188,-0.008471455799958904,0.00789913090241144,0.06463088563915206,0.9978420220951227,0.0,0.0,0.0,0.0,0.0,0.0,0.0,0.0,0.0,0.0,0.0,0.0,0.0,0.0,0.0,0.0,0.0,0.0,0.0,0.0,0.0,0.0,0.0,0.0,0.0,0.0,0.0,0.0,0.0,0.0,0.0,0.0,0.0,0.0,0.0,0.0,0.013476679855567266,-0.01831253018450993,-0.000485562640351141,-0.16755469143390656,-0.002429744228720672,-0.05700762942433357,0.0,0.0,0.0,0.0,0.0,0.0,0.0,0.0,0.0,0.0,0.0,0.0,0.0,0.0,0.0,0.0,0.0,0.0,0.0,0.0,0.0,0.0,0.0,0.0,0.0,0.0,0.0,0.0,0.0,0.0,0.0,0.0,0.0,0.0,0.0,0.0
1711478679053334684,3512,1711478679020537536,map,base_link,-1.933938980102539,-1.6216351985931396,0.005926400888711214,-0.01175862878530373,0.006735665173634685,0.06319342522383956,0.9979093727590431,0.0,0.0,0.0,0.0,0.0,0.0,0.0,0.0,0.0,0.0,0.0,0.0,0.0,0.0,0.0,0.0,0.0,0.0,0.0,0.0,0.0,0.0,0.0,0.0,0.0,0.0,0.0,0.0,0.0,0.0,0.0,0.0,0.0,0.0,0.0,0.0,0.0053053467420594,-0.01900771183553211,0.0034583657374668082,-0.1903907060623169,-0.08237080276012422,-0.08902794122695921,0.0,0.0,0.0,0.0,0.0,0.0,0.0,0.0,0.0,0.0,0.0,0.0,0.0,0.0,0.0,0.0,0.0,0.0,0.0,0.0,0.0,0.0,0.0,0.0,0.0,0.0,0.0,0.0,0.0,0.0,0.0,0.0,0.0,0.0,0.0,0.0
1711478679078859647,3513,1711478679061534464,map,base_link,-1.9345307350158691,-1.6217814683914185,0.005942896939814091,-0.014763448343309058,0.002739661057041453,0.06048110693476947,0.9980564652603462,0.0,0.0,0.0,0.0,0.0,0.0,0.0,0.0,0.0,0.0,0.0,0.0,0.0,0.0,0.0,0.0,0.0,0.0,0.0,0.0,0.0,0.0,0.0,0.0,0.0,0.0,0.0,0.0,0.0,0.0,0.0,0.0,0.0,0.0,0.0,0.0,-0.004945874562844127,-0.013189626726456825,0.006835296868231931,-0.0933631882071495,-0.3352496325969696,-0.13983690738677976,0.0,0.0,0.0,0.0,0.0,0.0,0.0,0.0,0.0,0.0,0.0,0.0,0.0,0.0,0.0,0.0,0.0,0.0,0.0,0.0,0.0,0.0,0.0,0.0,0.0,0.0,0.0,0.0,0.0,0.0,0.0,0.0,0.0,0.0,0.0,0.0
1711478679131343879,3514,1711478679091534464,map,base_link,-1.9350513219833374,-1.6220566034317017,0.0060262796469032764,-0.015821608195447822,-0.002802151662493076,0.056314258756739885,0.9982838475080623,0.0,0.0,0.0,0.0,0.0,0.0,0.0,0.0,0.0,0.0,0.0,0.0,0.0,0.0,0.0,0.0,0.0,0.0,0.0,0.0,0.0,0.0,0.0,0.0,0.0,0.0,0.0,0.0,0.0,0.0,0.0,0.0,0.0,0.0,0.0,0.0,-0.024494572050426773,-0.017761527431647387,0.0320765391245858,-0.06686608493328094,-0.3076517581939698,-0.2315116077661514,0.0,0.0,0.0,0.0,0.0,0.0,0.0,0.0,0.0,0.0,0.0,0.0,0.0,0.0,0.0,0.0,0.0,0.0,0.0,0.0,0.0,0.0,0.0,0.0,0.0,0.0,0.0,0.0,0.0,0.0,0.0,0.0,0.0,0.0,0.0,0.0
1711478679143149148,3515,1711478679121534464,map,base_link,-1.935470700263977,-1.6224285364151,0.006748665124177933,-0.015561738959335996,-0.005914851512254231,0.05417935229226906,0.9983925020835235,0.0,0.0,0.0,0.0,0.0,0.0,0.0,0.0,0.0,0.0,0.0,0.0,0.0,0.0,0.0,0.0,0.0,0.0,0.0,0.0,0.0,0.0,0.0,0.0,0.0,0.0,0.0,0.0,0.0,0.0,0.0,0.0,0.0,0.0,0.0,0.0,-0.0028315610283031205,-0.007257643126165235,0.028851815733235385,0.0630226880311966,-0.4776566922664643,-0.24732501804828638,0.0,0.0,0.0,0.0,0.0,0.0,0.0,0.0,0.0,0.0,0.0,0.0,0.0,0.0,0.0,0.0,0.0,0.0,0.0,0.0,0.0,0.0,0.0,0.0,0.0,0.0,0.0,0.0,0.0,0.0,0.0,0.0,0.0,0.0,0.0,0.0
1711478679178836187,3516,1711478679162531904,map,base_link,-1.936159372329712,-1.6231019496917725,0.00795756932348013,-0.0121318043906449,-0.015713596359426527,0.04715684439338391,0.9986902274214045,0.0,0.0,0.0,0.0,0.0,0.0,0.0,0.0,0.0,0.0,0.0,0.0,0.0,0.0,0.0,0.0,0.0,0.0,0.0,0.0,0.0,0.0,0.0,0.0,0.0,0.0,0.0,0.0,0.0,0.0,0.0,0.0,0.0,0.0,0.0,0.0,-0.004733847789966983,-0.02331668951996161,0.04499547871418778,0.23875804245471954,-0.4357424974441529,-0.36770188808441157,0.0,0.0,0.0,0.0,0.0,0.0,0.0,0.0,0.0,0.0,0.0,0.0,0.0,0.0,0.0,0.0,0.0,0.0,0.0,0.0,0.0,0.0,0.0,0.0,0.0,0.0,0.0,0.0,0.0,0.0,0.0,0.0,0.0,0.0,0.0,0.0
1711478679202157706,3517,1711478679192531904,map,base_link,-1.936666488647461,-1.6237646341323853,0.00908694602549076,-0.007734598002267514,-0.02271290966219603,0.040661762156764106,0.9988848615678277,0.0,0.0,0.0,0.0,0.0,0.0,0.0,0.0,0.0,0.0,0.0,0.0,0.0,0.0,0.0,0.0,0.0,0.0,0.0,0.0,0.0,0.0,0.0,0.0,0.0,0.0,0.0,0.0,0.0,0.0,0.0,0.0,0.0,0.0,0.0,0.0,-0.019433463969730766,-0.050082566142435045,0.05180706215868762,0.21015097200870514,-0.2733811438083649,-0.35800746083259577,0.0,0.0,0.0,0.0,0.0,0.0,0.0,0.0,0.0,0.0,0.0,0.0,0.0,0.0,0.0,0.0,0.0,0.0,0.0,0.0,0.0,0.0,0.0,0.0,0.0,0.0,0.0,0.0,0.0,0.0,0.0,0.0,0.0,0.0,0.0,0.0
1711478679247225459,3518,1711478679222531904,map,base_link,-1.9373692274093628,-1.6246614456176758,0.010801762342453003,-0.006644173420504649,-0.024813214881128427,0.03786266350661004,0.9989527601407787,0.0,0.0,0.0,0.0,0.0,0.0,0.0,0.0,0.0,0.0,0.0,0.0,0.0,0.0,0.0,0.0,0.0,0.0,0.0,0.0,0.0,0.0,0.0,0.0,0.0,0.0,0.0,0.0,0.0,0.0,0.0,0.0,0.0,0.0,0.0,0.0,-0.01949591440036586,-0.03877775893660127,0.05142832988550519,0.02655377797782421,-0.2501190304756165,-0.3197379112243652,0.0,0.0,0.0,0.0,0.0,0.0,0.0,0.0,0.0,0.0,0.0,0.0,0.0,0.0,0.0,0.0,0.0,0.0,0.0,0.0,0.0,0.0,0.0,0.0,0.0,0.0,0.0,0.0,0.0,0.0,0.0,0.0,0.0,0.0,0.0,0.0
1711478679271156642,3519,1711478679262529088,map,base_link,-1.9386472702026367,-1.626306414604187,0.013619653880596161,-0.00483081645858007,-0.02838911616928615,0.03161022067686744,0.9990853962730426,0.0,0.0,0.0,0.0,0.0,0.0,0.0,0.0,0.0,0.0,0.0,0.0,0.0,0.0,0.0,0.0,0.0,0.0,0.0,0.0,0.0,0.0,0.0,0.0,0.0,0.0,0.0,0.0,0.0,0.0,0.0,0.0,0.0,0.0,0.0,0.0,-0.026372652454610842,-0.06558483554844209,0.09963970191618078,-0.010560231283307076,-0.055384628474712407,-0.3013349771499634,0.0,0.0,0.0,0.0,0.0,0.0,0.0,0.0,0.0,0.0,0.0,0.0,0.0,0.0,0.0,0.0,0.0,0.0,0.0,0.0,0.0,0.0,0.0,0.0,0.0,0.0,0.0,0.0,0.0,0.0,0.0,0.0,0.0,0.0,0.0,0.0
1711478679306337623,3520,1711478679292529088,map,base_link,-1.9398199319839478,-1.6277782917022705,0.01652415841817856,-0.004814393675639997,-0.02792930854001147,0.02546204915034081,0.9992740034201288,0.0,0.0,0.0,0.0,0.0,0.0,0.0,0.0,0.0,0.0,0.0,0.0,0.0,0.0,0.0,0.0,0.0,0.0,0.0,0.0,0.0,0.0,0.0,0.0,0.0,0.0,0.0,0.0,0.0,0.0,0.0,0.0,0.0,0.0,0.0,0.0,-0.035974074278179204,-0.06997160657697095,0.143055147624355,0.06403355300426483,0.16104003787040708,-0.3126826584339142,0.0,0.0,0.0,0.0,0.0,0.0,0.0,0.0,0.0,0.0,0.0,0.0,0.0,0.0,0.0,0.0,0.0,0.0,0.0,0.0,0.0,0.0,0.0,0.0,0.0,0.0,0.0,0.0,0.0,0.0,0.0,0.0,0.0,0.0,0.0,0.0
1711478679335704812,3521,1711478679322529088,map,base_link,-1.941159963607788,-1.6294631958007812,0.020541423931717873,-0.004252132325991397,-0.024497415789225884,0.021171879293568337,0.999466656664672,0.0,0.0,0.0,0.0,0.0,0.0,0.0,0.0,0.0,0.0,0.0,0.0,0.0,0.0,0.0,0.0,0.0,0.0,0.0,0.0,0.0,0.0,0.0,0.0,0.0,0.0,0.0,0.0,0.0,0.0,0.0,0.0,0.0,0.0,0.0,0.0,-0.03542787968643864,-0.08411456938771114,0.15584533371380005,-0.012633332051336765,0.2968799769878387,-0.3393366634845734,0.0,0.0,0.0,0.0,0.0,0.0,0.0,0.0,0.0,0.0,0.0,0.0,0.0,0.0,0.0,0.0,0.0,0.0,0.0,0.0,0.0,0.0,0.0,0.0,0.0,0.0,0.0,0.0,0.0,0.0,0.0,0.0,0.0,0.0,0.0,0.0
1711478679367364549,3522,1711478679353526272,map,base_link,-1.9427489042282104,-1.6311050653457642,0.025494655594229698,-0.006101995702716,-0.021775299674966043,0.015318272091284396,0.9996268989827105,0.0,0.0,0.0,0.0,0.0,0.0,0.0,0.0,0.0,0.0,0.0,0.0,0.0,0.0,0.0,0.0,0.0,0.0,0.0,0.0,0.0,0.0,0.0,0.0,0.0,0.0,0.0,0.0,0.0,0.0,0.0,0.0,0.0,0.0,0.0,0.0,-0.043797298515867084,-0.053558604725114756,0.1758215364116919,-0.09748798608779907,0.03407389670610424,-0.32684436440467834,0.0,0.0,0.0,0.0,0.0,0.0,0.0,0.0,0.0,0.0,0.0,0.0,0.0,0.0,0.0,0.0,0.0,0.0,0.0,0.0,0.0,0.0,0.0,0.0,0.0,0.0,0.0,0.0,0.0,0.0,0.0,0.0,0.0,0.0,0.0,0.0
1711478679409951014,3523,1711478679393526272,map,base_link,-1.9450794458389282,-1.632993221282959,0.03334185853600502,-0.007733086642621694,-0.01992805862247223,0.008770464147177399,0.9997330668941095,0.0,0.0,0.0,0.0,0.0,0.0,0.0,0.0,0.0,0.0,0.0,0.0,0.0,0.0,0.0,0.0,0.0,0.0,0.0,0.0,0.0,0.0,0.0,0.0,0.0,0.0,0.0,0.0,0.0,0.0,0.0,0.0,0.0,0.0,0.0,0.0,-0.055113870334951916,-0.07022062060243774,0.2205162006733251,-0.004451856017112732,0.18988034129142756,-0.369447261095047,0.0,0.0,0.0,0.0,0.0,0.0,0.0,0.0,0.0,0.0,0.0,0.0,0.0,0.0,0.0,0.0,0.0,0.0,0.0,0.0,0.0,0.0,0.0,0.0,0.0,0.0,0.0,0.0,0.0,0.0,0.0,0.0,0.0,0.0,0.0,0.0
1711478679462043952,3524,1711478679423526272,map,base_link,-1.9470447301864624,-1.634391188621521,0.04026918113231659,-0.008354341726384397,-0.018576230066621686,0.0054187781661970144,0.9997779111409251,0.0,0.0,0.0,0.0,0.0,0.0,0.0,0.0,0.0,0.0,0.0,0.0,0.0,0.0,0.0,0.0,0.0,0.0,0.0,0.0,0.0,0.0,0.0,0.0,0.0,0.0,0.0,0.0,0.0,0.0,0.0,0.0,0.0,0.0,0.0,0.0,-0.05149548344798421,-0.0678408816397379,0.24012913721739634,-0.1955694705247879,0.13897597789764402,-0.31542566418647766,0.0,0.0,0.0,0.0,0.0,0.0,0.0,0.0,0.0,0.0,0.0,0.0,0.0,0.0,0.0,0.0,0.0,0.0,0.0,0.0,0.0,0.0,0.0,0.0,0.0,0.0,0.0,0.0,0.0,0.0,0.0,0.0,0.0,0.0,0.0,0.0
1711478679481378969,3525,1711478679454523200,map,base_link,-1.949194073677063,-1.6356885433197021,0.04868035763502121,-0.013167258780601303,-0.016173643863538232,-0.000390069082968406,0.9997824630005642,0.0,0.0,0.0,0.0,0.0,0.0,0.0,0.0,0.0,0.0,0.0,0.0,0.0,0.0,0.0,0.0,0.0,0.0,0.0,0.0,0.0,0.0,0.0,0.0,0.0,0.0,0.0,0.0,0.0,0.0,0.0,0.0,0.0,0.0,0.0,0.0,-0.05818718504250389,-0.07217565294736167,0.28526175925482816,-0.022657478228211403,0.060393054038286174,-0.2569143772125244,0.0,0.0,0.0,0.0,0.0,0.0,0.0,0.0,0.0,0.0,0.0,0.0,0.0,0.0,0.0,0.0,0.0,0.0,0.0,0.0,0.0,0.0,0.0,0.0,0.0,0.0,0.0,0.0,0.0,0.0,0.0,0.0,0.0,0.0,0.0,0.0
1711478679518817377,3526,1711478679494523200,map,base_link,-1.9523694515228271,-1.636779546737671,0.060488663613796234,-0.013467050944985926,-0.013569865249347238,-0.004865305751552171,0.9998053908861542,0.0,0.0,0.0,0.0,0.0,0.0,0.0,0.0,0.0,0.0,0.0,0.0,0.0,0.0,0.0,0.0,0.0,0.0,0.0,0.0,0.0,0.0,0.0,0.0,0.0,0.0,0.0,0.0,0.0,0.0,0.0,0.0,0.0,0.0,0.0,0.0,-0.06687971593026708,-0.044102271813006376,0.3158381631644286,-0.03982431814074516,0.23060920834541318,-0.19472439587116244,0.0,0.0,0.0,0.0,0.0,0.0,0.0,0.0,0.0,0.0,0.0,0.0,0.0,0.0,0.0,0.0,0.0,0.0,0.0,0.0,0.0,0.0,0.0,0.0,0.0,0.0,0.0,0.0,0.0,0.0,0.0,0.0,0.0,0.0,0.0,0.0
1711478679550667459,3527,1711478679524523200,map,base_link,-1.9549360275268555,-1.6375943422317505,0.07100997865200043,-0.01406809679495842,-0.01080079604868648,-0.006848146386595684,0.9998192993461628,0.0,0.0,0.0,0.0,0.0,0.0,0.0,0.0,0.0,0.0,0.0,0.0,0.0,0.0,0.0,0.0,0.0,0.0,0.0,0.0,0.0,0.0,0.0,0.0,0.0,0.0,0.0,0.0,0.0,0.0,0.0,0.0,0.0,0.0,0.0,0.0,-0.07415178071219457,-0.05856589713518082,0.3704968502808015,-0.007293013855814934,0.28900161385536194,-0.18670864403247836,0.0,0.0,0.0,0.0,0.0,0.0,0.0,0.0,0.0,0.0,0.0,0.0,0.0,0.0,0.0,0.0,0.0,0.0,0.0,0.0,0.0,0.0,0.0,0.0,0.0,0.0,0.0,0.0,0.0,0.0,0.0,0.0,0.0,0.0,0.0,0.0
1711478679581356605,3528,1711478679555520640,map,base_link,-1.9575239419937134,-1.6379894018173218,0.08259653300046921,-0.013414402467276992,-0.004485357509854742,-0.009904930868545287,0.9998509516293944,0.0,0.0,0.0,0.0,0.0,0.0,0.0,0.0,0.0,0.0,0.0,0.0,0.0,0.0,0.0,0.0,0.0,0.0,0.0,0.0,0.0,0.0,0.0,0.0,0.0,0.0,0.0,0.0,0.0,0.0,0.0,0.0,0.0,0.0,0.0,0.0,-0.07601164538918376,-0.05239950757214637,0.38815318646794095,0.032231125980615616,0.34367603063583374,-0.19980195164680487,0.0,0.0,0.0,0.0,0.0,0.0,0.0,0.0,0.0,0.0,0.0,0.0,0.0,0.0,0.0,0.0,0.0,0.0,0.0,0.0,0.0,0.0,0.0,0.0,0.0,0.0,0.0,0.0,0.0,0.0,0.0,0.0,0.0,0.0,0.0,0.0
1711478679626545712,3529,1711478679595520640,map,base_link,-1.9611072540283203,-1.6384845972061157,0.09929119795560837,-0.012063935452196703,0.0007190785777009389,-0.012416630158703477,0.9998499401050301,0.0,0.0,0.0,0.0,0.0,0.0,0.0,0.0,0.0,0.0,0.0,0.0,0.0,0.0,0.0,0.0,0.0,0.0,0.0,0.0,0.0,0.0,0.0,0.0,0.0,0.0,0.0,0.0,0.0,0.0,0.0,0.0,0.0,0.0,0.0,0.0,-0.07066061568664868,-0.03394789640163969,0.4299811177144435,0.08131911605596542,0.2075562477111816,-0.1145562902092934,0.0,0.0,0.0,0.0,0.0,0.0,0.0,0.0,0.0,0.0,0.0,0.0,0.0,0.0,0.0,0.0,0.0,0.0,0.0,0.0,0.0,0.0,0.0,0.0,0.0,0.0,0.0,0.0,0.0,0.0,0.0,0.0,0.0,0.0,0.0,0.0
1711478679648753306,3530,1711478679625520640,map,base_link,-1.9636411666870117,-1.638726830482483,0.112348772585392,-0.010927946834471021,0.003072758137535181,-0.013479573678148274,0.9998447138958149,0.0,0.0,0.0,0.0,0.0,0.0,0.0,0.0,0.0,0.0,0.0,0.0,0.0,0.0,0.0,0.0,0.0,0.0,0.0,0.0,0.0,0.0,0.0,0.0,0.0,0.0,0.0,0.0,0.0,0.0,0.0,0.0,0.0,0.0,0.0,0.0,-0.07316866561005962,-0.02958666529585443,0.43140001971847275,0.213685542345047,0.24046343564987183,-0.11094403266906741,0.0,0.0,0.0,0.0,0.0,0.0,0.0,0.0,0.0,0.0,0.0,0.0,0.0,0.0,0.0,0.0,0.0,0.0,0.0,0.0,0.0,0.0,0.0,0.0,0.0,0.0,0.0,0.0,0.0,0.0,0.0,0.0,0.0,0.0,0.0,0.0
1711478679694538460,3531,1711478679655517056,map,base_link,-1.9660829305648804,-1.6389880180358887,0.12570823729038239,-0.0071968670085163135,0.00703289554843447,-0.01504027147850665,0.9998362845261126,0.0,0.0,0.0,0.0,0.0,0.0,0.0,0.0,0.0,0.0,0.0,0.0,0.0,0.0,0.0,0.0,0.0,0.0,0.0,0.0,0.0,0.0,0.0,0.0,0.0,0.0,0.0,0.0,0.0,0.0,0.0,0.0,0.0,0.0,0.0,0.0,-0.08029362389833744,-0.05217509071838858,0.43807064492714887,0.09398973733186722,0.1761803030967712,-0.13803650438785556,0.0,0.0,0.0,0.0,0.0,0.0,0.0,0.0,0.0,0.0,0.0,0.0,0.0,0.0,0.0,0.0,0.0,0.0,0.0,0.0,0.0,0.0,0.0,0.0,0.0,0.0,0.0,0.0,0.0,0.0,0.0,0.0,0.0,0.0,0.0,0.0
1711478679716426563,3532,1711478679685517056,map,base_link,-1.9683681726455688,-1.6394145488739014,0.13927124440670013,-0.006438704735199876,0.009472289023405392,-0.016569864904664038,0.9997971722506945,0.0,0.0,0.0,0.0,0.0,0.0,0.0,0.0,0.0,0.0,0.0,0.0,0.0,0.0,0.0,0.0,0.0,0.0,0.0,0.0,0.0,0.0,0.0,0.0,0.0,0.0,0.0,0.0,0.0,0.0,0.0,0.0,0.0,0.0,0.0,0.0,-0.07888766808853183,-0.0670959910137274,0.4548863186274592,-0.008401671424508095,0.0879952535033226,-0.037572875618934645,0.0,0.0,0.0,0.0,0.0,0.0,0.0,0.0,0.0,0.0,0.0,0.0,0.0,0.0,0.0,0.0,0.0,0.0,0.0,0.0,0.0,0.0,0.0,0.0,0.0,0.0,0.0,0.0,0.0,0.0,0.0,0.0,0.0,0.0,0.0,0.0
1711478679756666295,3533,1711478679726517056,map,base_link,-1.9711068868637085,-1.640110731124878,0.15767517685890198,-0.006656502361510841,0.010147294674545773,-0.016958880316419574,0.9997825894411098,0.0,0.0,0.0,0.0,0.0,0.0,0.0,0.0,0.0,0.0,0.0,0.0,0.0,0.0,0.0,0.0,0.0,0.0,0.0,0.0,0.0,0.0,0.0,0.0,0.0,0.0,0.0,0.0,0.0,0.0,0.0,0.0,0.0,0.0,0.0,0.0,-0.05584987804025483,-0.04325446025003698,0.4486318124050455,-0.021521834656596184,0.05000490695238113,-0.07207566499710083,0.0,0.0,0.0,0.0,0.0,0.0,0.0,0.0,0.0,0.0,0.0,0.0,0.0,0.0,0.0,0.0,0.0,0.0,0.0,0.0,0.0,0.0,0.0,0.0,0.0,0.0,0.0,0.0,0.0,0.0,0.0,0.0,0.0,0.0,0.0,0.0
1711478679783388559,3534,1711478679756513728,map,base_link,-1.9728312492370605,-1.6406340599060059,0.17153866589069366,-0.007120211866995317,0.011336466029647125,-0.017834691828475975,0.9997514007732117,0.0,0.0,0.0,0.0,0.0,0.0,0.0,0.0,0.0,0.0,0.0,0.0,0.0,0.0,0.0,0.0,0.0,0.0,0.0,0.0,0.0,0.0,0.0,0.0,0.0,0.0,0.0,0.0,0.0,0.0,0.0,0.0,0.0,0.0,0.0,0.0,-0.0628543774133466,-0.04360501352797654,0.4473719472443105,0.0025555319152772427,0.09451939165592194,-0.029858695343136798,0.0,0.0,0.0,0.0,0.0,0.0,0.0,0.0,0.0,0.0,0.0,0.0,0.0,0.0,0.0,0.0,0.0,0.0,0.0,0.0,0.0,0.0,0.0,0.0,0.0,0.0,0.0,0.0,0.0,0.0,0.0,0.0,0.0,0.0,0.0,0.0
1711478679821811182,3535,1711478679786513728,map,base_link,-1.974370002746582,-1.6412150859832764,0.18556463718414307,-0.007950836030547444,0.012494010126208098,-0.018659969269167742,0.9997162081547051,0.0,0.0,0.0,0.0,0.0,0.0,0.0,0.0,0.0,0.0,0.0,0.0,0.0,0.0,0.0,0.0,0.0,0.0,0.0,0.0,0.0,0.0,0.0,0.0,0.0,0.0,0.0,0.0,0.0,0.0,0.0,0.0,0.0,0.0,0.0,0.0,-0.05484293981243382,-0.04431778977400888,0.4503242092706395,-0.0848776251077652,0.01006336230784654,-0.05992671102285385,0.0,0.0,0.0,0.0,0.0,0.0,0.0,0.0,0.0,0.0,0.0,0.0,0.0,0.0,0.0,0.0,0.0,0.0,0.0,0.0,0.0,0.0,0.0,0.0,0.0,0.0,0.0,0.0,0.0,0.0,0.0,0.0,0.0,0.0,0.0,0.0
1711478679854160276,3536,1711478679827513728,map,base_link,-1.9759854078292847,-1.6418904066085815,0.20484597980976105,-0.008126194249949844,0.012389562662336262,-0.018505458922526852,0.9997189898467068,0.0,0.0,0.0,0.0,0.0,0.0,0.0,0.0,0.0,0.0,0.0,0.0,0.0,0.0,0.0,0.0,0.0,0.0,0.0,0.0,0.0,0.0,0.0,0.0,0.0,0.0,0.0,0.0,0.0,0.0,0.0,0.0,0.0,0.0,0.0,0.0,-0.030700699231153598,-0.036445659949681124,0.44650389975366833,0.01880388893187046,-0.03266931325197219,0.032128863036632545,0.0,0.0,0.0,0.0,0.0,0.0,0.0,0.0,0.0,0.0,0.0,0.0,0.0,0.0,0.0,0.0,0.0,0.0,0.0,0.0,0.0,0.0,0.0,0.0,0.0,0.0,0.0,0.0,0.0,0.0,0.0,0.0,0.0,0.0,0.0,0.0
1711478679876099023,3537,1711478679857510144,map,base_link,-1.976857304573059,-1.6424133777618408,0.21886570751667023,-0.008859986029048193,0.011758771195553457,-0.01888524417445848,0.9997133000221579,0.0,0.0,0.0,0.0,0.0,0.0,0.0,0.0,0.0,0.0,0.0,0.0,0.0,0.0,0.0,0.0,0.0,0.0,0.0,0.0,0.0,0.0,0.0,0.0,0.0,0.0,0.0,0.0,0.0,0.0,0.0,0.0,0.0,0.0,0.0,0.0,-0.03320905460521831,-0.04749554108732325,0.4435921532724304,-0.021152667701244354,-0.07431613653898239,0.03707116842269898,0.0,0.0,0.0,0.0,0.0,0.0,0.0,0.0,0.0,0.0,0.0,0.0,0.0,0.0,0.0,0.0,0.0,0.0,0.0,0.0,0.0,0.0,0.0,0.0,0.0,0.0,0.0,0.0,0.0,0.0,0.0,0.0,0.0,0.0,0.0,0.0
